[{
    "name":"מסיבת סיום מיטב",
    "location":"משפחת סילברמן",
    "address":"החיטה 33",
    "city":"ינוב",
    "fromDate":"13-07-2017",
    "toDate":"13-07-2017",
    "day":"ה",
    "type":"מיטב",
    "status":"לא פעיל"
},
{
    "name":"אירוע פתיחת עונה אתנה",
    "location":"אולם הישגי",
    "address":"מכון ווינגיט",
    "city":"מכון ווינגיט",
    "fromDate":"18-10-2017",
    "toDate":"18-10-2017",
    "day":"ד",
    "type":"אתנה",
    "status":"לא פעיל"
},
{
    "name":"אליפות מיטב",
    "location":"היכל הספורט מטרו-ווסט",
    "address":"הפלמח 4",
    "city":"רעננה",
    "fromDate":"21-10-2017",
    "toDate":"21-10-2017",
    "day":"ש",
    "type":"מיטב",
    "status":"לא פעיל"
},
{
    "name":"גביע האיגוד - מס' 2",
    "location":"היכל הספורט מטרו-ווסט",
    "address":"הפלמח 4",
    "city":"רעננה",
    "fromDate":"24-11-2017",
    "toDate":"24-11-2017",
    "day":"ש",
    "type":"איגוד",
    "status":"לא פעיל"
},
{
    "name":"טורניר החורף בג'ודו",
    "location":"אולם ספורט",
    "address":"רמבם 35",
    "city":"פרדסיה",
    "fromDate":"15-12-2017",
    "toDate":"15-12-2017",
    "day":"ו",
    "type":"מיטב",
    "status":"פעיל"
},
{
    "name":"מחנה אימונים בינלאומי",
    "location":"איטליה",
    "address":"מלון",
    "city":"בארדנוצ'יה",
    "fromDate":"25-12-2017",
    "toDate":"31-12-2017",
    "day":"א-ש",
    "type":"איגוד",
    "status":"פעיל"
},
{
    "name":"פסטיבל הג'ודו",
    "location":"קניון אייס מול",
    "address":"רמבם 35",
    "city":"אילת",
    "fromDate":"17-01-2018",
    "toDate":"20-01-2018",
    "day":"ד-ש",
    "type":"איגוד",
    "status":"פעיל"
}]